City,Cloudiness,Country,Date,Humidity,Lat,Lng,Max Temp,Wind Speed
Rikitea,100,PF,1570761703,71,-23.12,-134.97,68.54,8.1
Kaitangata,100,NZ,1570761703,84,-46.28,169.85,45.0,24.0
Bathsheba,40,BB,1570761704,74,13.22,-59.52,82.4,10.29
Rongcheng,58,CN,1570761704,16,37.16,122.42,64.0,1.99
Tiksi,100,RU,1570761704,90,71.64,128.87,18.41,3.69
Ushuaia,90,AR,1570762170,79,-54.81,-68.31,26.6,32.21
Benghazi,0,LY,1570762170,57,32.12,20.07,76.05,10.5
Georgetown,75,GY,1570761705,94,6.8,-58.16,77.0,4.7
Jiexiu,58,CN,1570761705,45,37.02,111.92,64.0,3.19
Panjab,0,AF,1570761705,69,34.38,67.02,33.39,6.86
Punta Arenas,20,CL,1570762171,65,-53.16,-70.91,32.0,12.75
Komsomolskiy,99,RU,1570762171,93,67.55,63.78,29.43,13.91
Yellowknife,20,CA,1570762171,86,62.45,-114.38,34.0,6.93
Saskylakh,98,RU,1570762172,93,71.97,114.09,15.64,14.2
Bluff,25,AU,1570762172,34,-23.58,149.07,81.18,3.05
Guerrero Negro,0,MX,1570762172,80,27.97,-114.04,66.33,10.31
Arraial do Cabo,100,BR,1570762172,90,-22.97,-42.02,71.73,16.12
Stanovoye,100,RU,1570762173,94,52.76,38.34,44.56,9.38
Turukhansk,25,RU,1570761708,44,65.8,87.96,29.23,12.35
Albany,75,US,1570761708,58,42.65,-73.75,55.0,3.36
San Policarpo,33,PH,1570761708,68,12.18,125.51,84.9,9.45
Kapaa,1,US,1570761708,74,22.08,-159.32,89.6,4.7
Gueret,20,FR,1570761709,93,46.17,1.87,51.8,3.36
Shaunavon,0,CA,1570761709,54,49.65,-108.41,23.38,4.93
College,90,US,1570761709,100,64.86,-147.8,37.4,2.81
Mataura,100,NZ,1570761709,90,-46.19,168.86,45.0,11.99
Port Elizabeth,75,US,1570761710,42,39.31,-74.98,64.4,5.82
Karratha,0,AU,1570761710,47,-20.74,116.85,82.81,11.42
Porto Novo,100,BR,1570761710,82,-23.68,-45.44,66.2,5.82
Atuona,0,PF,1570761710,69,-9.8,-139.03,79.0,8.84
Fairbanks,90,US,1570761710,100,64.84,-147.72,37.4,3.79
Jamestown,0,AU,1570761711,25,-33.21,138.6,69.78,7.64
Yatou,75,CM,1570761711,100,3.63,9.81,77.0,2.01
Beringovskiy,50,RU,1570761711,69,63.05,179.32,33.48,3.48
Upernavik,100,GL,1570761711,49,72.79,-56.15,28.0,7.94
Mehamn,98,NO,1570761712,87,71.03,27.85,35.74,6.88
Mayo,90,CA,1570761712,56,63.59,-135.9,41.0,11.41
Leningradskiy,0,RU,1570761712,61,69.38,178.42,22.64,5.11
Hermanus,100,ZA,1570761712,86,-34.42,19.24,54.0,5.99
Saint-Philippe,20,CA,1570761712,76,45.36,-73.48,54.0,8.05
Seoul,1,KR,1570761713,72,37.57,126.98,69.8,5.82
Alice Springs,0,AU,1570761713,9,-23.7,133.88,86.0,6.93
Awjilah,0,LY,1570761713,42,29.14,21.3,72.66,5.9
Castro,90,CL,1570761713,100,-42.48,-73.76,50.0,10.29
Roald,61,NO,1570761714,76,62.58,6.12,48.2,10.29
Gambela,93,ET,1570761714,91,8.25,34.59,69.1,4.13
Ribeira Grande,15,PT,1570761714,86,38.52,-28.7,65.25,15.12
Galeana,0,MX,1570761714,49,24.83,-100.08,63.0,2.96
New Norfolk,75,AU,1570761714,58,-42.78,147.06,59.0,10.29
Fortuna,1,US,1570761715,53,40.6,-124.16,57.0,4.7
Dalby,75,AU,1570761715,82,-27.18,151.26,71.01,13.87
Lebu,75,ET,1570761715,87,8.96,38.73,53.6,4.7
Faanui,100,PF,1570761715,76,-16.48,-151.75,76.66,16.86
Vao,87,EE,1570761715,97,59.1,26.19,43.36,6.33
Busselton,95,AU,1570761716,46,-33.64,115.35,71.01,9.78
San Andres,78,PH,1570761716,66,13.32,122.68,86.16,0.99
Nikolskoye,90,RU,1570761716,100,59.7,30.79,44.01,3.66
Anderson,1,US,1570761716,100,34.51,-82.65,66.2,5.82
Vaini,75,IN,1570761717,94,15.34,74.49,71.6,2.24
Paamiut,96,GL,1570761717,55,61.99,-49.67,36.91,5.04
Talnakh,93,RU,1570761717,62,69.49,88.39,18.88,14.83
Khatanga,89,RU,1570761717,73,71.98,102.47,17.17,8.25
Canton,1,US,1570761718,87,40.8,-81.38,63.0,5.82
Hasaki,75,JP,1570761718,94,35.73,140.83,73.0,13.87
Vardo,1,US,1570761718,82,39.62,-77.74,60.01,8.68
Kant,98,KG,1570761718,29,42.89,74.85,60.57,4.24
Mount Gambier,90,AU,1570761719,76,-37.83,140.78,55.4,16.11
Kedougou,0,SN,1570761719,89,12.56,-12.19,72.93,3.24
Avarua,14,CK,1570761719,56,-21.21,-159.78,73.4,12.75
Hithadhoo,100,MV,1570761719,79,-0.6,73.08,82.08,12.67
Talara,2,PE,1570761720,87,-4.58,-81.27,63.01,17.79
Raha,22,IN,1570761720,89,26.23,92.52,76.82,1.49
Aranos,100,NA,1570761720,23,-24.14,19.11,60.66,6.58
Ponta do Sol,100,BR,1570761720,96,-20.63,-46.0,64.92,3.52
Traverse City,1,US,1570761721,67,44.76,-85.62,62.6,16.96
Hualmay,19,PE,1570761721,86,-11.1,-77.61,54.59,1.19
Salalah,40,OM,1570761721,73,17.01,54.1,77.0,5.82
Karakol,100,KG,1570761721,30,42.49,78.39,47.71,3.42
Cape Town,78,ZA,1570761722,87,-33.93,18.42,57.99,5.82
Saint George,20,GR,1570761722,93,39.45,22.34,62.6,1.37
Tuatapere,100,NZ,1570761722,90,-46.13,167.69,45.0,11.99
Sao Filipe,18,CV,1570761722,81,14.9,-24.5,78.42,4.27
Mehriz,0,IR,1570761722,25,31.58,54.44,62.6,2.24
Boras,75,SE,1570761723,93,57.72,12.94,52.0,8.05
Flin Flon,0,CA,1570761723,55,54.77,-101.88,27.84,0.6
Mandalgovi,100,MN,1570761723,93,45.76,106.27,27.97,12.51
Pokhara,0,NP,1570761723,79,28.21,83.99,70.77,0.69
Hamilton,20,CA,1570761724,81,43.26,-79.87,59.0,9.17
Hilo,90,US,1570761724,74,19.71,-155.08,82.4,6.93
Port Hardy,40,CA,1570761724,93,50.7,-127.42,41.0,2.24
Sefophe,100,BW,1570761724,76,-22.18,27.97,60.73,18.15
Bilibino,100,RU,1570761725,74,68.06,166.44,16.65,1.91
Gros Islet,20,LC,1570761725,88,14.07,-60.95,82.4,2.24
Hobart,75,AU,1570761725,58,-42.88,147.33,59.0,10.29
Severo-Kurilsk,51,RU,1570761725,54,50.68,156.12,55.04,4.74
Butaritari,58,KI,1570761725,60,3.07,172.79,84.6,6.4
Iqaluit,75,CA,1570761726,69,63.75,-68.52,37.4,12.75
Dongfeng,0,CN,1570761726,44,42.67,125.53,54.63,7.03
Bubaque,0,GW,1570761726,78,11.28,-15.83,82.04,7.05
Katherine,80,AU,1570761726,5,-14.47,132.26,95.0,11.41
Blois,20,FR,1570761726,100,47.59,1.33,54.0,3.36
Pevek,20,RU,1570761727,74,69.7,170.27,21.38,16.3
Carndonagh,41,IE,1570761727,91,55.25,-7.27,47.68,8.02
Mvuma,100,ZW,1570761727,84,-19.28,30.53,61.21,12.92
Provideniya,20,RU,1570761727,64,64.42,-173.23,35.6,4.47
Te Anau,100,NZ,1570761728,93,-45.41,167.72,42.01,6.45
Ilulissat,100,GL,1570761728,42,69.22,-51.1,26.6,25.28
Bam,0,IR,1570761728,20,29.11,58.36,72.28,11.72
Lorengau,100,PG,1570761728,67,-2.02,147.27,84.79,8.61
Cherskiy,100,RU,1570761728,80,68.75,161.3,21.58,8.04
Takoradi,11,GH,1570761729,91,4.89,-1.75,77.11,9.72
Souillac,0,FR,1570761729,100,45.6,-0.6,54.0,2.24
Mecca,0,SA,1570761729,50,21.43,39.83,81.57,0.94
Portland,40,US,1570762185,54,43.66,-70.25,55.0,10.29
Acapulco,75,MX,1570761730,78,16.86,-99.88,82.4,2.9
Bambanglipuro,27,ID,1570761730,44,-7.95,110.28,90.25,6.1
Luderitz,0,NA,1570761730,82,-26.65,15.16,55.4,2.24
Doka,100,SD,1570761731,88,13.52,35.76,71.51,5.44
Promyshlennyy,99,RU,1570761731,93,67.58,63.92,29.43,13.91
Tuktoyaktuk,40,CA,1570761731,100,69.44,-133.03,30.2,2.24
Vila Franca do Campo,75,PT,1570761731,73,37.72,-25.43,70.0,11.41
Beyneu,0,KZ,1570761731,46,45.32,55.19,47.59,11.12
Coihaique,25,CL,1570761732,75,-45.58,-72.07,41.0,1.12
Gejiu,4,CN,1570761732,70,23.36,103.16,69.69,5.12
Berlevag,100,NO,1570761732,76,70.86,29.09,40.24,10.11
Kavieng,14,PG,1570761732,71,-2.57,150.8,85.51,13.11
Kenai,75,US,1570761733,75,60.55,-151.26,44.6,8.05
Dingle,1,PH,1570761733,71,11.0,122.67,84.15,4.93
Puerto Ayora,3,EC,1570761733,91,-0.74,-90.35,66.0,10.21
Yining,100,CN,1570761733,86,29.04,114.56,72.28,2.39
Luwingu,0,ZM,1570761734,56,-10.26,29.92,69.71,5.17
Qaanaaq,100,GL,1570761734,62,77.48,-69.36,24.66,5.28
Blagoveshchenka,14,RU,1570761734,58,52.83,79.87,47.01,10.14
Upata,93,VE,1570761734,95,8.02,-62.41,68.0,1.39
Mahebourg,40,MU,1570761735,77,-20.41,57.7,73.0,10.29
San Patricio,0,PY,1570761735,57,-26.98,-56.83,72.36,6.7
Ormara,0,PK,1570761735,80,25.21,64.64,81.52,11.09
Bredasdorp,100,ZA,1570761735,87,-34.53,20.04,54.0,2.24
Victoria,75,BN,1570761736,66,5.28,115.24,86.0,3.36
Ovre Ardal,94,NO,1570761736,97,61.32,7.8,27.07,2.82
Cayenne,100,GF,1570761736,88,4.94,-52.33,75.2,2.24
Yulara,79,AU,1570761736,6,-25.24,130.99,93.2,9.17
Clyde River,90,CA,1570761736,80,70.47,-68.59,33.8,11.41
Aswan,100,EG,1570761737,24,24.09,32.9,86.23,5.93
Chapais,1,CA,1570761737,61,49.78,-74.86,46.4,5.82
Aksarka,0,RU,1570761737,90,66.56,67.8,31.95,12.88
Moindou,20,NC,1570761737,51,-21.69,165.68,84.2,11.41
Thompson,75,CA,1570761738,73,55.74,-97.86,24.8,4.01
Aklavik,75,CA,1570761738,74,68.22,-135.01,33.8,6.93
Kaeo,29,NZ,1570761738,98,-35.1,173.78,73.0,11.96
Antsirabe,0,MG,1570761738,88,-19.87,47.03,55.94,2.51
Ambilobe,35,MG,1570761738,69,-13.19,49.05,75.67,10.23
Sobolevo,100,RU,1570761739,98,54.43,31.9,43.0,6.26
Belaya Gora,100,RU,1570761739,89,68.54,146.19,17.55,5.46
Todos Santos,5,MX,1570761739,48,23.45,-110.23,86.0,1.89
Houston,1,US,1570762191,78,29.76,-95.37,82.0,11.52
Taoudenni,0,ML,1570761739,22,22.68,-3.98,79.27,9.48
Mopipi,92,BW,1570761740,68,-21.2,24.86,67.98,17.14
Edwardsville,90,US,1570761740,94,38.81,-89.95,71.6,5.82
Beinamar,94,TD,1570761740,94,8.67,15.38,70.7,2.2
Moose Factory,1,CA,1570761740,54,51.26,-80.61,53.6,9.17
Moron,13,HT,1570761741,77,18.56,-74.26,79.79,4.16
Plettenberg Bay,82,ZA,1570761741,57,-34.05,23.37,57.33,4.91
Kitakata,100,JP,1570761741,95,37.67,139.86,64.99,3.95
Kieta,94,PG,1570761741,67,-6.22,155.63,84.36,5.98
Suixi,76,CN,1570761741,79,33.92,116.76,66.99,5.54
Klyuchi,74,RU,1570761742,50,52.25,79.17,52.36,8.59
Guanay,0,BO,1570761742,67,-15.5,-67.88,64.6,1.59
Marfino,90,RU,1570761742,100,56.07,37.56,46.4,8.95
Lagoa,0,PT,1570761742,73,37.14,-8.45,70.0,9.17
Port Alfred,2,ZA,1570761743,86,-33.59,26.89,52.0,4.0
Sitka,0,US,1570761743,73,37.17,-99.65,35.01,28.01
Betare Oya,98,CM,1570761743,96,5.6,14.08,67.01,2.13
Carnarvon,0,ZA,1570761743,38,-30.97,22.13,47.53,7.79
Ceres,7,BR,1570761743,66,-15.31,-49.6,74.82,7.34
Tamiahua,0,MX,1570761744,80,21.28,-97.45,82.9,8.8
Namibe,62,AO,1570761744,86,-15.19,12.15,68.11,8.84
Mar del Plata,0,AR,1570761744,77,-46.43,-67.52,44.37,2.33
Fukue,75,JP,1570761744,69,35.03,136.69,84.0,8.05
Sioux Lookout,90,CA,1570761745,87,50.1,-91.92,53.6,5.82
Hofn,100,IS,1570761745,90,64.25,-15.21,46.09,32.87
Bambous Virieux,40,MU,1570761745,77,-20.34,57.76,73.0,10.29
Pueblo Nuevo,100,AR,1570761745,38,-32.93,-68.73,73.4,3.36
Snezhnogorsk,99,RU,1570761745,97,69.19,33.23,32.52,2.72
Alugan,33,PH,1570761746,68,12.22,125.48,84.9,9.45
Batagay,100,RU,1570761746,78,67.65,134.64,11.52,3.76
Pozo Colorado,0,PY,1570761746,47,-23.49,-58.8,80.02,4.2
Oistins,40,BB,1570761746,74,13.07,-59.53,82.4,10.29
Ahipara,15,NZ,1570761747,98,-35.17,173.16,73.0,9.15
Evensk,98,RU,1570761747,72,61.92,159.24,34.86,2.68
Anori,52,BR,1570761747,83,-3.74,-61.66,75.67,2.8
Necochea,40,AR,1570761747,73,-38.55,-58.74,57.99,1.01
Nanortalik,0,GL,1570761748,76,60.14,-45.24,39.13,2.28
Los Llanos de Aridane,90,ES,1570761748,88,28.66,-17.92,69.8,5.82
Alice Town,2,BS,1570761748,81,25.72,-79.3,81.25,12.97
Bakchar,90,RU,1570761748,53,57.02,82.07,32.34,8.66
Pangnirtung,100,CA,1570761749,94,66.15,-65.72,30.92,13.36
Nouadhibou,47,MR,1570761749,53,20.93,-17.03,77.0,12.75
Shimoda,75,JP,1570761749,94,34.7,138.93,75.2,3.36
Koplik,40,AL,1570761749,93,42.21,19.44,60.8,1.12
Kahului,40,US,1570761750,83,20.89,-156.47,91.4,8.05
Encruzilhada,57,BR,1570761750,91,-15.53,-40.91,65.88,7.07
Chokurdakh,100,RU,1570761750,93,70.62,147.9,14.16,5.7
Kodiak,90,US,1570761751,87,39.95,-94.76,43.0,12.75
Poum,51,MK,1570761751,89,41.28,20.71,51.57,2.47
Fonte Boa,34,BR,1570761751,97,-2.51,-66.09,72.46,2.06
Somerset West,82,ZA,1570761751,87,-34.08,18.85,57.99,5.82
Comodoro Rivadavia,0,AR,1570761752,75,-45.87,-67.48,42.8,1.12
Kalmunai,100,LK,1570761752,79,7.42,81.82,81.14,10.7
Grindavik,75,IS,1570761752,81,63.84,-22.43,44.6,17.22
Bundaberg,90,AU,1570761752,53,-24.87,152.35,73.99,13.87
Champerico,75,MX,1570761752,94,16.38,-93.6,73.4,3.36
Longyearbyen,75,NO,1570761753,79,78.22,15.63,26.6,2.24
Kudahuvadhoo,100,MV,1570761753,69,2.67,72.89,81.91,4.29
Gizo,20,IL,1570761753,78,31.8,34.94,73.4,4.7
Ewa Beach,75,US,1570761753,66,21.32,-158.01,87.8,11.41
Xuddur,31,SO,1570761754,87,4.12,43.89,72.27,8.16
Cabras,97,CO,1570761754,98,5.5,-75.6,57.99,2.02
Jesus Maria,0,CL,1570761754,40,-20.49,-69.32,52.83,3.15
Calafell,90,ES,1570761754,93,41.2,1.57,68.0,3.36
Denpasar,20,ID,1570761754,79,-8.65,115.22,84.2,6.93
Nabire,89,ID,1570761755,52,-3.36,135.5,89.29,5.1
Sargur,40,IN,1570761755,94,11.98,76.42,75.2,1.62
Porec,0,HR,1570761755,93,45.23,13.59,63.0,5.82
Sabang,89,PH,1570761755,76,13.8,121.11,84.99,3.0
Abha,0,SA,1570761756,43,18.22,42.5,60.8,4.97
East London,0,ZA,1570761756,75,-33.02,27.91,59.67,14.49
Dikson,100,RU,1570761756,91,73.51,80.55,30.72,30.96
Kibala,100,TD,1570761756,88,9.11,18.35,77.0,2.95
Bereda,75,ES,1570761756,100,43.27,-7.54,55.99,2.24
Peniche,0,PT,1570761757,100,39.36,-9.38,64.4,3.36
Kastamonu,67,TR,1570761757,86,41.38,33.78,50.29,2.52
Sovetskiy,100,RU,1570761757,93,56.76,48.47,47.43,18.31
Narsaq,77,GL,1570761757,64,60.91,-46.05,33.8,2.35
Halifax,90,CA,1570761757,81,44.65,-63.58,51.01,6.93
Andapa,88,MG,1570761758,95,-14.66,49.65,61.12,1.94
Tynda,82,RU,1570761758,37,55.15,124.74,23.59,13.46
Cabo San Lucas,5,MX,1570761758,45,22.89,-109.91,86.0,8.05
Draguignan,0,FR,1570761759,93,43.54,6.46,60.8,5.82
Mnogovershinnyy,0,RU,1570761759,45,53.94,139.92,40.17,13.75
Sechura,0,PE,1570761759,87,-5.56,-80.82,61.0,9.87
Petrovsk-Zabaykalskiy,0,RU,1570761759,41,51.27,108.84,23.45,6.64
Ostrovnoy,100,RU,1570761759,93,68.05,39.51,31.06,15.82
Mount Isa,0,AU,1570761760,8,-20.73,139.49,84.2,12.75
Buraydah,13,SA,1570761760,65,26.33,43.97,77.0,3.36
Sinnamary,0,GF,1570761760,80,5.38,-52.96,81.21,18.01
Varkaus,90,FI,1570761760,100,62.32,27.87,42.01,3.36
Kharitonovo,94,RU,1570761761,95,61.4,47.5,31.98,5.42
Wageningen,75,NL,1570761761,87,51.98,5.66,57.2,14.99
Sarangani,100,PH,1570761761,75,5.4,125.46,83.61,14.84
Muisne,100,EC,1570761761,88,0.61,-80.02,74.26,9.51
Havoysund,75,NO,1570761761,93,71.0,24.66,35.6,2.24
Acajutla,100,SV,1570761762,71,13.59,-89.83,83.53,8.24
Batagay-Alyta,100,RU,1570761762,80,67.8,130.41,14.54,6.07
Kaberamaido,100,UG,1570761762,93,1.76,33.16,64.42,1.02
Gat,86,SN,1570761763,88,14.69,-16.54,77.0,9.17
Vilhena,67,BR,1570761763,87,-12.74,-60.15,69.98,2.23
Betanzos,75,ES,1570761763,100,43.28,-8.21,59.0,2.24
Algiers,90,US,1570761763,83,29.94,-90.04,80.6,5.82
Jumla,11,NP,1570761764,64,29.28,82.18,52.7,2.36
Petukhovo,100,RU,1570761764,84,55.06,67.89,43.18,14.8
Farakka,14,IN,1570761764,66,24.79,87.91,82.51,3.39
Bethel,40,US,1570761764,86,60.79,-161.76,39.2,12.75
Saint-Louis,0,SN,1570761765,78,16.03,-16.5,80.71,10.08
Valparaiso,90,US,1570761765,64,41.47,-87.06,71.01,9.17
Horodkivka,33,UA,1570761765,91,49.91,28.98,45.16,7.1
Vanavara,0,RU,1570761765,53,60.35,102.28,24.69,5.63
Tarko-Sale,100,RU,1570761766,76,64.92,77.78,37.0,19.29
Tasiilaq,0,GL,1570761766,86,65.61,-37.64,33.8,4.7
Lasa,100,CY,1570761766,40,34.92,32.53,71.6,9.17
Bindura,1,ZW,1570761766,68,-17.3,31.33,67.35,6.21
Richards Bay,95,ZA,1570761766,68,-28.77,32.06,66.38,9.36
Tongzi,72,CN,1570761767,61,28.78,105.09,71.6,2.89
Kabansk,75,RU,1570761767,42,52.06,106.65,28.4,11.18
Garissa,49,KE,1570761767,77,-0.46,39.64,76.46,11.13
Zhangjiakou,32,CN,1570761767,69,40.77,114.88,53.73,10.35
Jian,0,IN,1570761768,68,25.65,87.89,82.15,2.39
Samarai,100,PG,1570761768,75,-10.62,150.67,77.59,6.73
Saint-Pierre,90,FR,1570761768,93,48.95,4.24,55.99,11.41
Hajnowka,41,PL,1570761768,87,52.74,23.58,46.99,11.69
Finnsnes,0,NO,1570761768,92,69.23,17.98,28.4,9.17
Thinadhoo,100,MV,1570761769,77,0.53,72.93,81.52,9.41
Palm Coast,40,US,1570761769,73,29.55,-81.22,79.0,9.17
Lindi,100,TZ,1570761769,95,-10.0,39.71,71.1,3.55
Anloga,20,GH,1570761769,88,5.79,0.9,78.8,8.05
Macamic,5,CA,1570761769,70,48.75,-79.0,48.2,6.93
Katsuura,75,JP,1570761770,73,33.93,134.5,82.0,12.75
Marsh Harbour,5,BS,1570761770,79,26.54,-77.06,80.76,14.94
San Quintin,0,PH,1570761770,60,17.54,120.52,83.71,4.17
Taungdwingyi,29,MM,1570761770,74,20.0,95.55,82.33,3.26
Shelburne,1,CA,1570761771,86,44.08,-80.2,53.6,7.28
Mulchen,100,CL,1570761771,76,-37.72,-72.23,52.59,3.01
Waingapu,0,ID,1570761771,82,-9.65,120.26,78.22,7.57
Constitucion,40,MX,1570761771,42,23.99,-104.67,68.0,8.05
Esperance,98,AU,1570761771,64,-33.86,121.89,71.6,6.93
Stubbekobing,96,DK,1570761772,100,54.89,12.04,53.01,9.17
Torbay,5,CA,1570761772,93,47.66,-52.73,41.0,5.82
Verkhnyaya Inta,40,RU,1570761772,82,65.99,60.32,26.65,8.37
Saldanha,0,PT,1570761772,54,41.42,-6.55,56.5,2.75
Djougou,100,BJ,1570761773,95,9.71,1.67,70.95,3.82
Okhotsk,100,RU,1570761773,91,59.36,143.24,39.36,16.74
Paine,100,CL,1570761773,43,-33.81,-70.74,69.8,9.17
Port-Gentil,99,GA,1570761773,88,-0.72,8.78,77.27,13.69
Parana,92,BR,1570761773,80,-7.52,-72.89,74.7,2.68
Quatre Cocos,40,MU,1570761774,77,-20.21,57.76,73.0,10.29
Rundu,99,NA,1570761774,68,-17.91,19.77,71.6,2.24
Chuy,66,UY,1570761774,80,-33.69,-53.46,66.0,9.77
Hay River,20,CA,1570761774,64,60.82,-115.79,32.0,6.93
Upington,0,ZA,1570761775,28,-28.46,21.24,55.4,1.12
Faya,43,SA,1570761775,43,18.39,42.45,60.8,5.37
Moree,40,AU,1570761775,33,-29.46,149.84,75.0,13.87
Tallahassee,1,US,1570761775,77,30.44,-84.28,75.2,3.36
Den Helder,75,NL,1570761776,93,52.96,4.76,57.99,25.28
Sola,81,TZ,1570761776,68,-3.17,33.8,68.56,7.39
Durango,40,MX,1570761776,42,24.02,-104.67,68.0,8.05
Airai,43,TL,1570761776,27,-8.93,125.41,84.72,8.96
Padang,100,ID,1570761777,69,-0.92,100.36,78.96,2.87
Sarakhs,75,TM,1570761777,63,36.54,61.16,64.4,6.22
Vila,0,IT,1570761777,100,45.18,8.4,54.0,8.05
Agirish,0,RU,1570761777,78,61.92,63.02,31.42,6.38
Caravelas,11,BR,1570761777,94,-17.73,-39.27,69.67,5.11
Sorland,30,NO,1570761778,65,67.67,12.69,44.35,11.04
Kangaatsiaq,100,GL,1570761778,64,68.31,-53.46,33.28,18.76
Onega,92,RU,1570761778,83,63.91,38.09,35.4,8.9
Broome,100,GB,1570761778,87,52.47,1.45,61.0,10.29
Inhambane,94,MZ,1570761779,84,-23.87,35.38,72.03,21.37
Villa Rica,75,CO,1570761779,73,3.18,-76.46,75.2,3.36
Altay,0,CN,1570761779,40,47.83,88.13,46.35,2.07
Ketou,77,BJ,1570761779,98,7.36,2.6,72.52,3.82
Sfantu Gheorghe,75,RO,1570761780,100,44.65,26.83,61.0,3.36
Sao Joao da Barra,94,BR,1570761780,86,-21.64,-41.05,73.31,14.0
Regente Feijo,31,BR,1570761780,73,-22.22,-51.3,74.34,6.69
Beloha,0,MG,1570761780,74,-25.17,45.06,71.28,5.41
Coruripe,10,BR,1570761781,76,-10.12,-36.18,76.64,15.42
Najran,0,SA,1570761781,40,17.54,44.22,68.0,2.32
Griffith,65,AU,1570761781,32,-34.29,146.06,71.6,9.17
Lompoc,1,US,1570761781,67,34.64,-120.46,64.4,3.36
Kendari,72,ID,1570761782,33,-3.99,122.52,94.24,2.18
Tevaitoa,100,PF,1570761782,78,-16.78,-151.5,75.88,19.74
Ishinomaki,75,JP,1570761782,93,38.42,141.3,64.4,2.24
Sokoto,100,NG,1570761782,78,13.06,5.24,76.19,4.96
Olinda,40,AU,1570761782,55,-37.84,145.39,68.0,4.7
Buerarema,63,BR,1570761783,93,-14.96,-39.3,68.94,2.15
Karla,40,EE,1570761783,93,59.37,24.93,48.2,6.93
Aksha,0,RU,1570761783,32,50.28,113.29,26.69,12.18
Cumra,100,TR,1570761783,58,37.57,32.77,53.6,3.36
Srednekolymsk,100,RU,1570761784,92,67.46,153.71,21.42,6.95
Stephenville,5,CA,1570761784,93,48.55,-58.59,39.2,4.7
Yeppoon,40,AU,1570761784,42,-23.13,150.74,82.4,10.29
Cururupu,98,BR,1570761784,91,-1.82,-44.87,73.8,3.52
Chvaletice,48,CZ,1570761784,87,50.03,15.42,48.99,9.17
Palmer,20,AU,1570761785,39,-34.85,139.16,71.01,6.93
Hidrolandia,5,BR,1570761785,72,-4.41,-40.44,74.16,6.46
Morro Bay,1,US,1570761785,82,35.37,-120.85,61.0,3.36
Kharian,0,PK,1570761785,94,32.81,73.87,68.0,4.2
Kruisfontein,54,ZA,1570761786,83,-34.0,24.73,49.21,6.56
Bilma,57,NE,1570761786,25,18.69,12.92,85.12,6.18
Coahuayana,100,MX,1570761786,90,18.62,-100.35,73.29,2.78
Port Augusta,0,AU,1570761786,37,-32.49,137.76,73.99,11.41
Linhares,0,BR,1570761786,92,-19.38,-40.06,68.29,1.46
Meulaboh,3,ID,1570761787,79,4.14,96.13,79.81,3.62
Praia da Vitoria,20,PT,1570761787,88,38.73,-27.07,64.4,19.28
Rio Gallegos,0,AR,1570761787,50,-51.62,-69.22,33.8,19.46
Chumikan,0,RU,1570761787,43,54.72,135.31,36.91,16.15
Kamenka,100,MD,1570761788,92,48.03,28.7,48.0,6.37
Kilrush,75,IE,1570761788,100,51.96,-8.06,57.0,12.75
Isangel,75,VU,1570761789,61,-19.55,169.27,80.6,9.17
Vostok,0,RU,1570761789,48,46.45,135.83,46.87,9.71
Sayyan,11,YE,1570761789,50,15.17,44.32,56.88,8.2
Lluta,0,PE,1570761790,15,-16.02,-72.01,55.4,3.36
Namatanai,86,PG,1570761790,66,-3.66,152.44,85.82,3.78
Nanga Eboko,100,CM,1570761790,99,4.68,12.37,67.98,5.61
Quelimane,75,MZ,1570761791,88,-17.88,36.89,73.4,5.82
Tabas,0,IR,1570761791,31,33.6,56.92,64.4,2.24
Chaohu,77,CN,1570761791,73,31.63,117.88,69.8,6.71
El Molino,75,CO,1570761791,88,10.65,-72.92,78.8,6.93
Pemba,11,MZ,1570761791,82,-12.97,40.52,77.13,3.74
Deputatskiy,100,RU,1570761792,92,69.3,139.9,14.25,0.62
Bandarbeyla,0,SO,1570761792,87,9.49,50.81,79.29,6.72
Esil,100,KZ,1570761792,80,51.96,66.41,43.3,21.69
Brynmawr,100,GB,1570761792,87,51.8,-3.17,59.0,16.11
Senneterre,5,CA,1570761793,65,48.39,-77.24,46.4,4.7
Livingston,90,US,1570761793,64,32.58,-88.19,82.4,6.42
Oranjemund,0,ZA,1570761793,24,-28.55,16.43,59.77,4.5
Biak,80,ID,1570761793,78,-0.91,122.88,80.64,14.66
Churapcha,100,RU,1570761794,77,62.0,132.43,22.66,9.99
Ust-Koksa,0,RU,1570761794,48,50.27,85.62,42.69,5.23
Muroto,75,JP,1570761794,54,33.37,134.14,82.4,9.17
Huanuco,34,PE,1570761794,88,-9.93,-76.24,43.25,1.97
Kajaani,75,FI,1570761794,100,64.22,27.73,35.6,5.82
Ampanihy,9,MG,1570761795,57,-24.69,44.75,71.6,3.53
Southbridge,1,US,1570761795,61,42.08,-72.03,55.99,14.99
Tautira,20,PF,1570761795,61,-17.73,-149.15,80.6,10.29
Aras,0,ES,1570761796,87,42.56,-2.36,51.01,2.24
La Libertad,0,PE,1570761796,15,-16.38,-71.56,55.4,3.36
Canico,75,PT,1570761796,77,32.63,-16.85,68.0,8.05
Barrow,99,AR,1570761796,88,-38.31,-60.23,60.3,11.9
Alofi,75,NU,1570761797,69,-19.06,-169.92,80.6,12.75
Noumea,20,NC,1570761797,51,-22.28,166.46,84.2,11.41
Loviisa,90,FI,1570761797,100,60.46,26.23,46.99,5.82
Terrace,75,CA,1570761797,86,54.52,-128.61,41.0,2.24
Isla Vista,1,US,1570761798,51,34.41,-119.86,69.01,4.7
Himatnagar,0,IN,1570761798,73,23.6,72.96,75.2,2.24
Geraldton,90,CA,1570761798,87,49.72,-86.95,48.2,2.24
Medea,20,DZ,1570761799,93,36.27,2.77,57.2,2.24
Westport,1,US,1570761799,41,41.14,-73.36,61.0,21.92
Wattegama,100,LK,1570761799,94,7.35,80.68,73.74,0.62
Whitehorse,75,CA,1570761799,99,60.72,-135.06,41.0,17.22
Yaan,100,NG,1570761799,95,7.38,8.57,73.33,4.91
Port Lincoln,0,AU,1570761800,64,-34.72,135.86,60.94,14.33
Touros,75,BR,1570761800,88,-5.2,-35.46,75.2,4.7
Bolobo,100,CD,1570761800,80,-2.17,16.23,72.5,2.83
Laukaa,90,FI,1570761800,100,62.42,25.95,43.0,5.82
Trelew,3,AR,1570761801,80,-43.25,-65.31,44.22,19.2
Worthing,75,GB,1570761801,93,50.81,-0.37,61.0,13.87
Anamur,100,TR,1570761801,93,36.08,32.84,60.8,5.82
Nome,1,US,1570761801,88,30.04,-94.42,82.0,3.36
Port Blair,83,IN,1570761801,69,11.67,92.75,83.1,3.73
Falam,98,MM,1570762230,79,22.91,93.68,70.38,1.94
Yalutorovsk,0,RU,1570762230,86,56.65,66.31,36.0,7.87
San Javier,0,BR,1570762231,84,-27.87,-55.13,62.01,3.83
Paragominas,98,BR,1570762231,72,-3.0,-47.35,75.02,4.21
Mongo,100,CD,1570762231,91,-5.62,14.6,70.56,5.99
Talcahuano,100,CL,1570762231,81,-36.72,-73.12,53.6,2.24
Tessalit,0,ML,1570761878,37,20.2,1.01,84.49,13.42
Banjar,84,ID,1570761879,61,-7.37,108.54,84.22,4.39
Salinopolis,88,BR,1570761879,78,-0.61,-47.36,80.73,18.72
Brae,98,GB,1570761879,93,60.4,-1.35,50.0,4.7
Okha,21,RU,1570761880,63,53.59,142.95,46.8,11.79
Moranbah,33,AU,1570761880,32,-22.0,148.04,83.53,1.68
Tutoia,99,BR,1570761880,77,-2.76,-42.27,75.15,6.18
Broken Hill,16,AU,1570761880,23,-31.97,141.45,71.6,10.29
Vestmannaeyjar,100,IS,1570761881,60,63.44,-20.27,46.02,5.19
Vila Velha,20,BR,1570761881,74,-3.71,-38.6,80.6,14.99
Paita,0,PE,1570761881,74,-5.09,-81.11,63.64,8.61
Saint-Prosper,97,CA,1570761881,58,46.21,-70.48,42.01,4.18
Reconquista,0,AR,1570761881,62,-29.14,-59.64,73.35,7.81
Gornopravdinsk,100,RU,1570761882,91,60.06,69.92,39.92,7.73
Parrita,40,CR,1570761882,94,9.52,-84.33,72.0,2.24
Mestec Kralove,48,CZ,1570761882,87,50.21,15.3,48.99,9.17
Veraval,90,FR,1570761883,93,49.65,0.71,59.0,8.05
Istanbul,86,TR,1570761883,93,41.01,28.95,66.2,3.36
Saint-Joseph,0,FR,1570761883,93,43.56,6.97,60.8,5.82
Lethem,51,GY,1570761883,65,3.38,-59.8,81.61,3.66
Solnechnyy,74,RU,1570761883,57,50.72,136.64,43.05,11.22
Kyaka,77,TZ,1570761884,94,-1.25,31.42,62.8,2.48
Mbamba,78,NG,1570761884,92,9.98,13.1,69.39,2.3
Fez,100,MA,1570761884,52,34.03,-5.02,64.4,8.05
Dzerzhinsk,90,RU,1570761884,87,56.24,43.46,51.8,13.42
Novobelokatay,13,RU,1570761885,91,55.7,58.96,32.43,4.61
Luancheng,98,CN,1570761885,72,37.88,114.65,64.4,2.24
Ancud,90,CL,1570761885,100,-41.87,-73.83,50.0,10.29
Goderich,0,CA,1570761885,76,43.74,-81.71,51.01,15.01
Rawson,33,AR,1570761886,80,-43.3,-65.11,47.43,17.9
Klaksvik,100,FO,1570761886,93,62.23,-6.59,48.2,9.17
Nioro,0,GM,1570761886,69,13.79,-15.05,78.03,8.21
Leninogorsk,100,RU,1570761886,93,54.6,52.45,41.14,16.06
Yarmouth,90,CA,1570761886,58,43.84,-66.12,54.0,20.8
Tual,78,ID,1570761887,76,-5.67,132.75,80.74,0.74
Nueva Gerona,99,CU,1570761887,76,21.88,-82.8,83.46,12.51
Tecoanapa,75,MX,1570761887,78,16.99,-99.26,82.4,1.75
Maniitsoq,100,GL,1570761887,67,65.42,-52.9,34.61,13.55
Cervo,100,BR,1570761888,97,-22.19,-46.24,61.14,4.74
Jinchang,99,CN,1570761888,33,38.52,102.19,55.78,1.38
Yerbogachen,77,RU,1570761888,75,61.28,108.01,22.03,7.47
Swellendam,98,ZA,1570761888,87,-34.02,20.44,42.8,2.24
Marawi,100,PH,1570761889,75,8.0,124.29,84.0,5.99
Carauari,100,BR,1570761889,98,-4.88,-66.9,73.24,1.77
Svobodnyy,100,RU,1570761889,72,53.85,40.53,48.99,3.0
Rostovka,100,RU,1570761889,50,55.02,73.58,48.97,8.12
Praia,100,BR,1570761889,68,-20.25,-43.81,69.8,3.71
Cidreira,0,BR,1570761890,86,-30.17,-50.22,68.67,18.07
Derzhavinsk,98,KZ,1570761890,79,51.1,66.31,45.5,24.78
Raudeberg,97,NO,1570761890,87,61.99,5.14,46.4,12.75
Kirakira,36,SB,1570761890,80,-10.46,161.92,81.55,6.78
Ellisras,100,ZA,1570761891,74,-23.67,27.74,58.44,15.28
Tazovskiy,100,RU,1570761891,85,67.47,78.7,35.73,20.41
Fare,100,PF,1570761891,76,-16.7,-151.02,76.57,17.33
Saint Anthony,1,US,1570761891,36,43.97,-111.68,30.2,2.72
Malumfashi,100,NG,1570761892,85,11.79,7.62,72.48,3.36
Freeport,25,BS,1570761892,80,26.54,-78.7,80.35,17.39
Evans,90,US,1570761892,86,40.38,-104.69,28.4,3.36
Pisco,90,PE,1570761892,77,-13.71,-76.2,60.8,8.05
Svetlaya,90,RU,1570761892,59,46.54,138.33,59.81,9.76
Carutapera,85,BR,1570761893,79,-1.2,-46.02,80.24,19.14
Kavaratti,43,IN,1570761893,68,10.57,72.64,83.34,1.06
San Ignacio,81,PE,1570761893,95,-5.15,-79.0,59.56,1.96
San Mateo del Mar,100,MX,1570761893,76,16.21,-94.98,84.18,8.0
Nizhniy Tsasuchey,0,RU,1570761894,23,50.52,115.13,28.36,10.88
Basco,90,US,1570761894,93,40.33,-91.2,66.99,9.17
Cottonwood,1,US,1570761894,10,34.74,-112.01,53.6,16.11
Merauke,98,ID,1570761894,46,-8.49,140.4,91.56,8.21
Mazara del Vallo,0,IT,1570761894,82,37.65,12.59,64.0,3.36
Mgandu,57,TZ,1570761895,94,-5.96,34.11,60.64,10.5
San Cristobal,100,HN,1570761895,96,14.68,-86.92,66.43,1.65
Bay City,1,US,1570761895,71,43.59,-83.89,60.8,5.82
Dayong,20,CN,1570761895,69,25.02,118.29,82.4,4.47
Manaure,100,CO,1570761896,79,11.78,-72.45,83.21,19.39
Havre-Saint-Pierre,20,CA,1570761896,68,50.23,-63.6,35.6,7.04
Sydney,40,AU,1570761896,55,-33.85,151.22,64.99,12.75
Atar,32,MR,1570761896,27,20.52,-13.05,80.89,10.93
Baykit,0,RU,1570761897,53,61.68,96.39,25.54,1.27
Bemidji,90,US,1570761897,100,47.48,-94.89,45.0,5.82
Mirante do Paranapanema,36,BR,1570761897,41,-22.29,-51.91,78.8,4.7
Petatlan,75,MX,1570761897,78,17.52,-101.27,82.4,2.24
Paoua,100,CF,1570761897,98,7.24,16.43,68.27,2.83
Hirara,40,JP,1570761898,61,24.8,125.28,80.6,13.87
Tema,20,GH,1570761898,88,5.66,-0.01,78.8,9.17
The Pas,75,CA,1570761898,43,53.82,-101.24,35.6,10.29
Jasper,40,US,1570761898,68,33.83,-87.28,75.2,3.36
Novo Aripuana,58,BR,1570761899,95,-5.12,-60.38,73.56,2.97
Hailey,5,US,1570761899,58,43.52,-114.32,30.2,4.7
Iracoubo,0,GF,1570761899,80,5.48,-53.21,81.21,18.01
Oktyabrskoye,0,RU,1570761899,50,56.73,85.44,32.0,12.03
Hovd,90,NO,1570761899,94,63.83,10.7,45.0,6.93
Kayseri,0,TR,1570761900,75,38.73,35.48,44.6,2.31
Zhanaozen,16,KZ,1570761900,35,43.35,52.85,48.07,17.03
Maputo,75,MZ,1570761900,72,-25.97,32.57,64.4,13.87
Pacific Grove,1,US,1570761900,48,36.62,-121.92,68.0,1.14
Brebes,6,ID,1570761901,42,-6.87,109.04,92.75,3.68
Taseyevo,0,RU,1570761901,44,57.22,94.9,29.8,7.51
Itacoatiara,60,BR,1570761901,73,-3.14,-58.44,77.88,1.78
Rome,0,IT,1570761902,87,41.89,12.48,61.0,1.12
Taltal,13,CL,1570761902,91,-25.41,-70.49,50.67,2.18
Buala,100,SB,1570761902,70,-8.15,159.59,84.74,7.88
Haines Junction,100,CA,1570761902,97,60.75,-137.51,30.27,10.25
Avera,1,US,1570761903,56,33.19,-82.53,71.6,4.7
Cartagena,20,ES,1570761903,73,37.63,-1.0,73.4,8.05
Kropotkin,17,RU,1570761903,66,45.43,40.58,53.38,3.68
Ust-Kuyga,77,RU,1570761903,83,70.0,135.55,11.88,3.52
Port Keats,86,AU,1570761904,54,-14.25,129.55,88.93,11.12
Waitati,100,NZ,1570761904,97,-45.75,170.57,46.99,19.06
Hokitika,100,NZ,1570761904,84,-42.72,170.96,55.06,19.55
Qandala,0,SO,1570761904,72,11.47,49.87,81.32,3.34
Margate,75,AU,1570761905,58,-43.03,147.26,53.6,10.29
Lanigan,0,CA,1570761905,52,51.85,-105.03,27.64,5.68
Kologriv,100,RU,1570761905,96,58.83,44.31,38.84,7.85
Lata,0,IN,1570761906,46,30.78,78.62,37.09,3.67
Dubbo,75,AU,1570761906,37,-32.25,148.6,68.0,8.05
Dunedin,100,NZ,1570761906,97,-45.87,170.5,46.99,19.06
Saint-Augustin,20,CA,1570761906,57,45.63,-73.98,54.0,4.7
Jacareacanga,48,BR,1570761906,82,-6.22,-57.76,73.85,0.49
Urengoy,100,RU,1570761907,75,65.96,78.37,35.67,16.89
Oktyabrskiy,90,RU,1570761907,87,55.61,37.97,46.4,8.95
Borogontsy,100,RU,1570761907,66,62.67,131.17,22.73,8.16
Ibaiti,0,BR,1570761908,95,-23.85,-50.19,64.99,1.99
Kidal,29,ML,1570761908,53,18.44,1.41,81.57,10.82
Bartica,75,GY,1570761908,94,6.41,-58.62,77.0,4.7
Ketchikan,90,US,1570761908,70,55.34,-131.65,51.8,20.8
Lahijan,2,IR,1570761909,100,37.21,50.0,68.0,3.83
Phan Thiet,0,VN,1570761909,64,10.93,108.1,85.44,3.88
Sawtell,75,AU,1570761909,63,-30.38,153.1,64.4,10.29
Lazarev,66,RU,1570761909,43,52.23,141.51,48.24,13.29
