City,Cloudiness,Country,Date,Humidity,Lat,Lng,Max Temp,Wind Speed
Sribne,74,UA,1570907833,56,50.66,32.92,54.93,15.03
Georgetown,40,GY,1570907833,66,6.8,-58.16,91.4,11.41
Los Llanos de Aridane,75,ES,1570908183,69,28.66,-17.92,73.4,2.24
Kaitangata,99,NZ,1570907834,83,-46.28,169.85,46,14
Nouakchott,0,MR,1570908184,15,18.08,-15.98,95,4.7
Butaritari,5,KI,1570908184,70,3.07,172.79,84.99,10.61
Adrar,75,DZ,1570908184,34,27.87,-0.29,82.4,21.92
Hobart,21,AU,1570907834,93,-42.88,147.33,37.4,10.29
Kieta,100,PG,1570907835,78,-6.22,155.63,80.67,7.22
Bredasdorp,85,ZA,1570907835,76,-34.53,20.04,60.01,3.36
Albany,75,US,1570908184,52,42.65,-73.75,66,3.36
Rikitea,16,PF,1570908185,70,-23.12,-134.97,68.61,14.48
Vaini,100,IN,1570908185,93,15.34,74.49,70.23,2.58
Vilyuysk,94,RU,1570908185,96,63.75,121.63,12.27,8.98
Khatanga,100,RU,1570908185,91,71.98,102.47,24.15,9.4
Ust-Kuyga,83,RU,1570907836,94,70,135.55,13.89,4.89
Mragowo,87,PL,1570907836,82,53.86,21.31,57.2,8.05
Punta Arenas,75,CL,1570908185,56,-53.16,-70.91,41,31.09
Ushuaia,90,AR,1570908186,74,-54.81,-68.31,33.8,31.09
Bonthe,100,SL,1570908186,84,7.53,-12.5,81.03,10.55
Busselton,0,AU,1570908186,63,-33.64,115.35,46,5.42
Baikunthpur,0,IN,1570908186,74,23.26,82.56,65.55,0.58
Barrow,47,AR,1570907837,67,-38.31,-60.23,72.03,11.84
Severo-Kurilsk,73,RU,1570907838,80,50.68,156.12,32.79,7.07
Aykino,97,RU,1570907838,89,62.22,49.99,43.05,9.11
Smithers,75,CA,1570907838,86,54.78,-127.17,41,6.93
Victoria,75,BN,1570907838,88,5.28,115.24,78.8,2.56
Rocha,100,UY,1570907839,96,-34.48,-54.34,63.39,9.83
Campina Verde,55,BR,1570908187,36,-19.54,-49.49,89.85,4.73
Cabo San Lucas,90,MX,1570908187,83,22.89,-109.91,82.99,9.17
Kapaa,1,US,1570907839,83,22.08,-159.32,80.6,13.87
Margate,21,AU,1570907840,93,-43.03,147.26,37.4,10.29
Naze,75,NG,1570907840,83,5.43,7.07,78.8,4.7
Carutapera,4,BR,1570907840,77,-1.2,-46.02,81.21,19.65
Tuatapere,99,NZ,1570907840,94,-46.13,167.69,43,8.01
Atuona,0,PF,1570907841,68,-9.8,-139.03,78.33,13.81
Kodiak,1,US,1570907841,27,39.95,-94.76,63,16.11
Carrickfergus,6,GB,1570907841,81,54.72,-5.81,51.8,3.36
Cayenne,75,GF,1570907841,62,4.94,-52.33,87.8,11.41
Talas,8,KG,1570907841,38,42.52,72.24,46.65,5.84
Jamestown,99,AU,1570907842,23,-33.21,138.6,62.49,20.37
Port Lincoln,100,AU,1570908188,71,-34.72,135.86,56.73,1.69
Olinda,38,AU,1570907842,87,-37.84,145.39,48.99,10.29
Mataura,66,NZ,1570907842,94,-46.19,168.86,43,8.01
Homer,1,US,1570907843,75,59.64,-151.54,42.8,4.7
Talnakh,100,RU,1570907844,92,69.49,88.39,23.97,16.8
Hilo,90,US,1570907844,78,19.71,-155.08,78.01,4.7
Vila Velha,20,BR,1570908189,69,-3.71,-38.6,82.4,19.46
Fort Nelson,20,CA,1570908189,74,58.81,-122.69,37.4,4.7
Faanui,57,PF,1570907845,74,-16.48,-151.75,75.27,21.35
Saldanha,49,PT,1570907845,42,41.42,-6.55,72.03,9.35
Penzance,75,GB,1570907845,93,50.12,-5.53,57.99,9.17
Oranjemund,0,ZA,1570907845,76,-28.55,16.43,57.81,15.37
Port Alfred,95,ZA,1570908190,90,-33.59,26.89,61,3
Chicama,20,PE,1570907846,72,-7.84,-79.15,66.2,11.41
Caravelas,46,BR,1570907846,58,-17.73,-39.27,81.57,12.11
Sola,100,TZ,1570907846,55,-3.17,33.8,74.01,17.12
Yellowknife,40,CA,1570907846,64,62.45,-114.38,46.99,6.93
Tasiilaq,90,GL,1570907846,92,65.61,-37.64,30.2,3.36
Dingle,96,PH,1570907847,89,11,122.67,73.29,4.89
Tuktoyaktuk,90,CA,1570907847,86,69.44,-133.03,32,14.99
Baracoa,17,CU,1570907847,68,20.35,-74.5,82.29,7.28
The Valley,20,AI,1570908191,62,18.22,-63.06,89.6,5.82
Cabra,25,ES,1570907847,45,37.47,-4.43,82.4,10.29
Ngunguru,24,NZ,1570907848,95,-35.62,174.5,48.99,1.01
Tateyama,100,JP,1570907848,94,36.66,137.31,64.99,4
Dikson,100,RU,1570907848,97,73.51,80.55,30.63,26.64
Saint George,20,GR,1570908192,88,39.45,22.34,66.2,4.65
Mpongwe,100,ZM,1570907849,38,-13.51,28.16,79.59,11.99
Tual,47,ID,1570907849,83,-5.67,132.75,77.43,6.79
Verkhnevilyuysk,66,RU,1570907849,95,63.45,120.31,12.27,6.38
Qaanaaq,99,GL,1570907849,75,77.48,-69.36,22.71,6.8
Vila Franca do Campo,40,PT,1570908192,59,37.72,-25.43,62.6,12.75
Husavik,100,CA,1570907850,71,50.56,-96.99,41,5.01
Hamilton,40,CA,1570907850,57,43.26,-79.87,59,18.34
Barcelos,94,BR,1570907851,61,-0.97,-62.93,88.05,3.47
San Cristobal,68,HN,1570908193,55,14.68,-86.92,81.57,5.38
Ostrovnoy,100,RU,1570907851,98,68.05,39.51,34.77,10.62
Straumen,75,NO,1570907851,75,63.87,11.3,44.6,13.87
Bambous Virieux,40,MU,1570908193,78,-20.34,57.76,73.4,9.17
Ust-Nera,90,RU,1570907852,94,64.57,143.24,-2.49,8.87
Takoradi,100,GH,1570907852,85,4.89,-1.75,76.89,5.36
East London,20,ZA,1570908194,88,-33.02,27.91,62.6,5.82
Hermanus,39,ZA,1570907853,87,-34.42,19.24,62.01,9.87
Atasu,89,KZ,1570907854,52,48.68,71.64,53.13,8.89
Tiksi,51,RU,1570907854,88,71.64,128.87,14.25,6.12
Laguna,40,BZ,1570907854,74,16.17,-88.94,86,11.41
Hasanabad,65,IR,1570907854,52,35.37,51.24,69.8,25.28
Saint-Philippe,1,CA,1570907855,48,45.36,-73.48,66.99,4.2
Bluff,0,AU,1570907855,28,-23.58,149.07,62.85,6.23
Ancud,75,CL,1570907855,71,-41.87,-73.83,51.8,8.05
Komsomolskiy,92,RU,1570907855,94,67.55,63.78,30.99,8.45
Codrington,40,AU,1570907857,87,-28.95,153.24,55.4,9.17
Boma,98,GH,1570907857,98,7.08,-2.17,69.87,2.4
Salalah,0,OM,1570907857,74,17.01,54.1,80.6,5.82
Batemans Bay,58,AU,1570908195,93,-35.71,150.18,46,3
Veracruz,40,EC,1570907858,33,-3.97,-79.57,86,20.8
Tucurui,99,BR,1570907858,53,-3.77,-49.67,87.87,2.92
Hithadhoo,100,MV,1570907858,79,-0.6,73.08,79.77,8.07
Lagoa,20,PT,1570907859,88,37.14,-8.45,68,10.29
Saint-Raymond,90,CA,1570907860,71,46.89,-71.84,55,10.29
Havre-Saint-Pierre,75,CA,1570907860,43,50.23,-63.6,55.4,9.17
Axim,90,GH,1570907861,94,4.87,-2.24,75.09,3.41
Cruz,0,BR,1570907861,44,-2.92,-40.18,89.13,16.87
Taber,20,CA,1570907861,45,49.79,-112.14,46.4,5.82
Myre,99,SE,1570907861,93,62.25,17.37,46,4.7
Tautira,20,PF,1570907862,61,-17.73,-149.15,77,5.82
Lata,8,IN,1570907862,70,30.78,78.62,27.75,1.51
Albert,75,FR,1570907862,93,50,2.65,61,6.93
Bathsheba,40,BB,1570907862,66,13.22,-59.52,86,11.41
Rio Grande,88,BR,1570908197,66,-32.03,-52.1,84.2,13.87
Anloga,20,GH,1570907863,94,5.79,0.9,77,6.93
Hofn,24,IS,1570907863,58,64.25,-15.21,41.79,6.17
Dutse,13,NG,1570907863,39,11.76,9.34,89.31,10.2
Gat,0,SN,1570907863,70,14.69,-16.54,98.6,10.29
Xuddur,74,SO,1570907863,67,4.12,43.89,79.41,7.52
Carnarvon,36,ZA,1570907864,7,-30.97,22.13,69.87,14.82
Port Elizabeth,1,US,1570908198,35,39.31,-74.98,73.99,10.29
Lebu,78,ET,1570907864,81,8.96,38.73,53.31,5.08
Provideniya,0,RU,1570907864,86,64.42,-173.23,25.23,4.13
Halifax,90,CA,1570907865,100,44.65,-63.58,57.99,12.75
Saint-Louis,0,SN,1570907865,56,16.03,-16.5,95,6.93
Arraial do Cabo,0,BR,1570908198,69,-22.97,-42.02,82.4,20.8
Evensk,100,RU,1570907865,97,61.92,159.24,34.41,9.53
Clyde River,75,CA,1570908198,80,70.47,-68.59,30.2,6.93
Oga,94,IT,1570907865,65,46.46,10.35,46.99,10.29
Teya,75,MX,1570907866,66,21.05,-89.07,91,4.7
Iquitos,90,PE,1570907866,319,-3.75,-73.25,42.8,4.7
Puerto Ayora,20,EC,1570908199,57,-0.74,-90.35,77,11.41
Namatanai,88,PG,1570907867,75,-3.66,152.44,82.11,2.88
Half Moon Bay,1,US,1570908199,82,37.46,-122.43,79,9.17
Esperance,8,AU,1570907867,100,-33.86,121.89,46.4,4.7
Maragogi,96,BR,1570907867,73,-9.01,-35.22,78.15,16.98
Lengshuitan,99,CN,1570907868,66,26.41,111.6,68.79,4.38
Mahebourg,40,MU,1570907868,78,-20.41,57.7,73.4,9.17
Kloulklubed,90,PW,1570907868,94,7.04,134.26,75.2,8.05
Simbahan,100,PH,1570907868,67,6.3,120.58,83.73,3.85
Torbay,75,CA,1570907868,76,47.66,-52.73,51.8,8.05
Ziarat,31,PK,1570907869,35,30.38,67.73,55.83,3.59
Ixtapa,75,MX,1570907869,62,20.71,-105.21,90,6.93
Mokhsogollokh,81,RU,1570907869,89,61.4,128.95,15.87,10.59
Beyneu,100,KZ,1570907869,28,45.32,55.19,61.05,4.51
Upernavik,99,GL,1570907869,77,72.79,-56.15,29.91,11.78
Lakeway,1,US,1570907870,36,30.36,-97.99,66.2,4.7
Saskylakh,100,RU,1570907870,81,71.97,114.09,24.69,9.9
Ino,0,JP,1570907870,65,33.55,133.43,64.29,8.43
Coquimbo,75,CL,1570907870,67,-29.95,-71.34,60.8,13.87
Umm Kaddadah,75,SD,1570908201,31,13.6,26.69,90.93,7.57
Barentu,65,ER,1570907871,53,15.11,37.59,78.87,8.38
Srednekolymsk,100,RU,1570907871,95,67.46,153.71,21.09,8.56
Tsiroanomandidy,70,MG,1570907871,50,-18.77,46.05,77.61,1.5
Krasnaya Gora,100,RU,1570908201,62,53.01,31.6,57.2,13.42
Banjar,96,ID,1570907872,92,-7.37,108.54,72.57,1.49
Tazmalt,13,DZ,1570907872,73,36.39,4.4,71.6,3.36
Moa,0,CU,1570907872,46,20.66,-74.95,88.05,5.36
Lukoyanov,95,RU,1570907872,82,55.03,44.48,48.09,17.35
Avarua,68,CK,1570907872,49,-21.21,-159.78,71.6,10.29
Cockburn Town,40,TC,1570908202,70,21.46,-71.14,86,6.93
Grand Gaube,40,MU,1570908202,78,-20.01,57.66,73.4,9.17
Flinders,69,AU,1570907873,100,-34.58,150.85,54,9.17
Cape Town,21,ZA,1570908203,77,-33.93,18.42,63,18.34
Souillac,0,FR,1570907873,73,45.6,-0.6,73.99,4.69
Bara,47,NG,1570907874,67,10.41,10.6,80.49,5.61
Pandharpur,79,IN,1570907874,76,17.68,75.33,78.87,6.69
Hasaki,20,JP,1570907874,57,35.73,140.83,77,13.87
Christchurch,92,NZ,1570907874,93,-43.53,172.64,48,6.93
Houma,0,CN,1570907875,82,35.63,111.36,55.83,6.64
Bauska,40,LV,1570907875,87,56.41,24.19,50,5.82
Chute-aux-Outardes,1,CA,1570907875,62,49.12,-68.38,53.6,17.22
Maumere,35,ID,1570907875,59,-8.63,122.22,74.91,6.17
Chokurdakh,90,RU,1570907875,95,70.62,147.9,20.73,8.83
Nabire,90,ID,1570907876,97,-3.36,135.5,71.31,1.91
Cherskiy,100,RU,1570907876,76,68.75,161.3,29.37,7.05
Thinadhoo,100,MV,1570907876,73,0.53,72.93,79.59,5.06
Norman Wells,90,CA,1570908206,95,65.28,-126.83,33.8,21.92
Nikolskoye,75,RU,1570907876,87,59.7,30.79,48,11.18
Kruisfontein,72,ZA,1570907877,89,-34,24.73,53.67,7.01
Quzhou,55,CN,1570907877,81,28.97,118.86,67.71,4.66
Brigham City,1,US,1570908206,26,41.51,-112.02,53.01,5.15
Svetlaya,52,RU,1570907877,45,46.54,138.33,41.61,15.85
Sao Raimundo das Mangabeiras,4,BR,1570908206,23,-7.02,-45.48,99.39,9.34
Telimele,70,GN,1570907878,80,10.9,-13.03,77.61,3.74
Kirakira,100,SB,1570907878,84,-10.46,161.92,77.07,5.28
Itarema,0,BR,1570907878,44,-2.92,-39.92,89.13,16.87
Qiongshan,0,CN,1570907878,100,20.01,110.35,71.6,6.48
Airai,25,TL,1570907879,34,-8.93,125.41,65.55,3.49
Chulym,80,RU,1570907879,49,55.09,80.97,45.75,3.74
Mitsamiouli,40,KM,1570907880,83,-11.38,43.28,80.6,2.24
Umarkot,18,PK,1570907880,32,25.37,69.74,86.25,4.55
Pangnirtung,75,CA,1570907880,92,66.15,-65.72,32,5.82
Kavieng,80,PG,1570907880,73,-2.57,150.8,83.19,4.32
Vanino,100,RU,1570907880,70,53.93,40.55,52,8.01
Manggar,72,ID,1570907881,74,-2.88,108.27,80.85,5.73
Iki-Burul,8,RU,1570907881,64,45.82,44.65,54.93,7.48
Hobyo,17,SO,1570907881,80,5.35,48.53,80.31,13.91
Longyearbyen,20,NO,1570907881,73,78.22,15.63,21.2,2.24
Rayagada,100,IN,1570907882,93,19.17,83.42,73.29,0.84
Khvalynsk,9,RU,1570907882,80,52.5,48.11,47.91,6.98
Barbalha,40,BR,1570907882,23,-7.31,-39.3,95,10.29
Imeni Poliny Osipenko,0,RU,1570908208,46,52.42,136.49,24.69,6.48
Yar-Sale,100,RU,1570907882,98,66.83,70.83,35.85,6.83
Longonjo,76,AO,1570907883,74,-12.91,15.25,67.71,8.15
Huarmey,8,PE,1570907883,45,-10.07,-78.15,74.73,10.76
Pierre,90,US,1570907883,60,44.37,-100.35,39.2,33.33
Edson,1,CA,1570907883,56,53.59,-116.44,41,3.36
Bethel,1,US,1570907884,92,60.79,-161.76,30.2,8.05
Mogadishu,73,SO,1570907884,85,2.04,45.34,80.13,11.17
Dunedin,98,NZ,1570907884,96,-45.87,170.5,46,12.84
Sicuani,61,PE,1570907884,40,-14.27,-71.23,50.07,3.38
Baykit,68,RU,1570907884,58,61.68,96.39,24.87,2.31
Magistralnyy,0,RU,1570907885,79,56.17,107.45,18.75,1.9
Dire,83,ET,1570907885,77,9.18,38.92,52.23,6.45
Talakan,0,RU,1570907885,58,50.29,130.28,23.79,2.32
Kabugao,94,PH,1570907885,97,18.02,121.18,62.31,3.07
Lensk,75,RU,1570907886,93,60.71,114.91,15.69,8.65
Sinop,1,TR,1570907886,77,42.03,35.15,61.41,18.29
Kabinda,100,CD,1570907886,89,-6.14,24.49,72.39,1.61
Uvalde,90,US,1570907886,16,29.21,-99.79,68,3.36
Belmonte,36,PT,1570907886,68,40.36,-7.35,68,6.86
Davila,20,PH,1570907887,88,18.47,120.58,71.6,5.82
Sao Filipe,0,CV,1570908210,77,14.9,-24.5,79.41,18.68
Fortuna,20,US,1570907887,34,40.6,-124.16,66.2,3.36
Thompson,75,CA,1570907887,55,55.74,-97.86,35.6,17.22
New Norfolk,20,AU,1570908211,86,-42.78,147.06,37.4,6.93
Saint-Georges,99,CA,1570907888,100,46.12,-70.67,57.99,3
Kaspiyskiy,13,RU,1570907888,61,45.39,47.37,57.81,11.84
Ardakan,0,IR,1570907888,18,32.31,54.02,69.8,2.24
Kahului,40,US,1570907888,54,20.89,-156.47,84.2,12.75
Dudinka,100,RU,1570907889,92,69.41,86.18,28.11,17.6
Chuy,100,UY,1570907889,88,-33.69,-53.46,71.31,7.73
Ishigaki,79,JP,1570907889,75,24.34,124.16,77.07,18.78
Port-Gentil,40,GA,1570907890,88,-0.72,8.78,78.8,9.17
Xuzhou,94,CN,1570907890,74,34.27,117.18,61.95,5.48
Saint-Pierre,42,FR,1570907890,93,48.95,4.24,64.4,9.17
Soyo,20,AO,1570907890,78,-6.13,12.37,80.6,9.17
Ca Mau,70,VN,1570908212,86,9.18,105.15,76.17,1.81
Ahuimanu,90,US,1570907891,69,21.44,-157.84,84.2,12.75
Dubbo,0,AU,1570907891,81,-32.25,148.6,46.4,12.75
Maturin,49,VE,1570907891,54,9.75,-63.18,90.39,5.16
Harper,75,US,1570907891,21,30.3,-99.24,64.99,4.7
Brokopondo,40,SR,1570907891,49,5.06,-54.98,91.4,8.05
Muros,75,ES,1570907892,82,42.77,-9.06,66.99,10.29
West Lafayette,1,US,1570908213,40,40.43,-86.91,53.6,14.99
Turiacu,79,BR,1570907892,42,-5.01,-63,94.17,4.88
Ilhabela,0,BR,1570907892,82,-23.78,-45.36,75.09,8.4
Eureka,20,US,1570907893,34,40.8,-124.16,66.2,3.36
Guerrero Negro,17,MX,1570908214,31,27.97,-114.04,81.57,4.06
Geraldton,90,CA,1570907893,69,49.72,-86.95,37.4,12.75
Vidim,0,CZ,1570907893,63,50.47,14.53,64.99,12.75
Atambua,27,ID,1570907893,71,-9.11,124.89,70.77,3.44
Yerbogachen,69,RU,1570907894,81,61.28,108.01,19.11,6.91
Erzin,0,TR,1570907894,61,36.95,36.2,79,12.75
Cerkezkoy,0,TR,1570907894,87,41.28,28,64.4,10.29
Chateauroux,87,FR,1570907895,73,43.72,0.65,72,21.92
Abatskoye,100,RU,1570907895,77,56.29,70.46,46.11,8.45
Tura,85,RU,1570907895,69,64.27,100.22,20.01,4.84
Nhulunbuy,22,AU,1570907895,100,-12.18,136.78,66.2,7.35
Shiyan,36,CN,1570907895,84,32.65,110.78,56.55,2.92
Weligama,24,LK,1570907896,88,5.97,80.42,77.43,2.3
Gobabis,57,NA,1570907896,33,-22.45,18.97,77,8.05
Beringovskiy,1,RU,1570907896,72,63.05,179.32,35.67,8.7
Sergeyevka,100,KZ,1570907896,68,53.88,67.42,46.47,8.93
Vanimo,100,PG,1570907896,73,-2.67,141.3,83.01,10.08
Helmstedt,93,DE,1570907896,67,52.23,11.01,62.6,4.7
Bollnas,100,SE,1570907897,98,61.35,16.39,43,2.84
Tromso,0,NO,1570907897,85,69.65,18.96,24.8,13.87
Karpathos,1,GR,1570907897,88,35.51,27.21,71.6,25.28
Novodugino,100,RU,1570907897,88,55.63,34.3,51.33,18.69
Viedma,86,AR,1570907897,30,-40.81,-62.99,63.75,12.28
Abohar,39,IN,1570907898,26,30.15,74.2,81.21,5.74
Poum,8,MK,1570907898,87,41.28,20.71,53.6,2.24
Mitchell,90,US,1570907898,80,43.71,-98.03,35.6,14.99
Faya,82,SA,1570907898,35,18.39,42.45,69.8,6.93
General Pico,98,AR,1570908216,56,-35.66,-63.75,77.07,7.12
Cidreira,0,BR,1570907899,73,-30.17,-50.22,74.01,14.4
Vardo,90,US,1570907899,59,39.62,-77.74,68,4.7
Samarai,54,PG,1570907899,91,-10.62,150.67,68.97,3.2
Monteagudo,20,BO,1570907899,41,-19.8,-63.96,93.2,11.41
Broome,20,GB,1570907899,93,52.47,1.45,54,3.36
Estevan,90,CA,1570907900,61,49.14,-102.99,34,20.8
Carbondale,1,US,1570907900,24,38.82,-95.69,68,18.34
Tilichiki,100,RU,1570907900,94,60.47,166.1,41.07,29.92
Castro,75,CL,1570907900,71,-42.48,-73.76,51.8,8.05
Igboho,85,NG,1570907900,91,8.84,3.76,74.19,6.4
Guisguis,93,PH,1570907901,91,13.86,121.5,75.99,3.29
Port Blair,3,IN,1570908217,72,11.67,92.75,83.37,6.14
Isangel,90,VU,1570907901,94,-19.55,169.27,75.2,17.47
Radhanpur,35,IN,1570907901,52,23.83,71.61,83.37,2.89
Touros,40,BR,1570907901,61,-5.2,-35.46,82.4,17.22
Ribeira Grande,20,PT,1570908218,63,38.52,-28.7,62.6,9.17
Duku,89,ID,1570907902,98,-1.19,100.47,66.99,0.28
Marystown,100,CA,1570907902,86,47.17,-55.16,48.99,21.32
Bubaque,84,GW,1570907902,81,11.28,-15.83,82.65,18.76
Bosaso,0,SO,1570907902,77,11.28,49.18,81.75,11.57
Yaan,64,NG,1570907902,89,7.38,8.57,77.25,3.33
Panaba,12,MX,1570907903,60,21.28,-88.27,87.51,10.54
Sucre,20,BO,1570907903,26,-19.05,-65.26,73.4,9.17
Wattegama,22,LK,1570907903,96,7.35,80.68,72.75,0.96
Saint Anthony,1,US,1570908218,31,43.97,-111.68,48,2.47
Melilla,90,EC,1570907903,74,-0.8,-80.23,78.8,10.29
Kichera,0,RU,1570907904,65,55.93,110.1,10.65,5.84
Myitkyina,0,MM,1570907904,86,25.38,97.4,71.31,2.11
Luderitz,0,NA,1570907904,77,-26.65,15.16,60.8,17.22
Linxia,69,CN,1570907904,70,35.6,103.21,42.33,1.81
Cap Malheureux,40,MU,1570908219,78,-19.98,57.61,73.4,9.17
Villaviciosa,40,ES,1570907904,82,43.48,-5.43,66,4.7
Alice Springs,0,AU,1570908219,10,-23.7,133.88,84.2,11.41
Iskateley,100,RU,1570907905,90,67.68,53.15,36.93,15.03
Noumea,14,NC,1570907905,77,-22.28,166.46,75.99,2.24
Ahipara,55,NZ,1570907905,100,-35.17,173.16,50,8.29
Itoman,40,JP,1570907906,69,26.12,127.67,77,16.11
Usinsk,76,RU,1570907906,90,66,57.56,33.33,11.79
Amga,100,RU,1570907906,93,60.89,131.98,16.41,5.95
Bowen,75,AU,1570907906,100,-20.01,148.25,68,3.36
Gilbues,0,BR,1570907906,18,-9.83,-45.34,98.85,10.9
Monroe,1,US,1570907906,37,41.91,-83.4,52,10.29
Yantai,48,CN,1570907907,74,37.53,121.39,61.95,3.73
Grindavik,75,IS,1570907907,93,63.84,-22.43,42.8,11.41
Hirara,79,JP,1570907907,73,24.8,125.28,77.79,20.42
Luz,60,BR,1570907907,42,-19.79,-45.68,86.25,2.67
Lithakia,0,GR,1570907907,88,37.72,20.83,71.6,10.1
Kutum,99,SD,1570907908,26,14.2,24.66,83.55,6.38
Maseru,85,LS,1570907908,30,-29.31,27.48,65.37,4.35
Padang,89,ID,1570907908,98,-0.92,100.36,66.99,0.28
San Quintin,87,PH,1570908221,83,17.54,120.52,67.89,5.28
Nome,1,US,1570908221,40,30.04,-94.42,71.6,10.29
Te Anau,86,NZ,1570908221,94,-45.41,167.72,39.63,3.2
Acari,0,BR,1570907909,32,-6.44,-36.64,88.95,25.4
Dekar,1,BW,1570907909,27,-21.53,21.93,75.45,5.19
Usogorsk,100,RU,1570907909,93,63.43,48.71,40.71,8.27
Terra Santa,10,BR,1570908222,29,-2.1,-56.49,98.49,8.88
Innisfail,0,AU,1570907910,91,-17.52,146.03,65.19,3.49
Darasun,0,RU,1570907910,67,51.66,113.98,21.2,8.95
Ovalle,100,CL,1570907910,18,-30.6,-71.2,75.27,11.51
Wellington,93,NZ,1570907911,81,-41.29,174.78,53.01,9.17
Matamoros,90,US,1570907911,40,25.87,-97.51,71.6,16.11
Misratah,0,LY,1570907911,79,32.38,15.09,75.63,14.31
Sur,0,OM,1570907911,72,22.57,59.53,78.69,6.4
Lavumisa,0,ZA,1570907911,60,-27.31,31.88,75.2,2.24
Lanzhou,33,CN,1570907912,93,36.06,103.82,39.2,4.47
Celestun,9,MX,1570907912,75,20.87,-90.4,82.65,13.79
Yining,90,CN,1570907912,94,29.04,114.56,60.87,0.42
Pekan,75,MY,1570907912,88,3.49,103.39,77,3.36
Arlit,53,NE,1570907912,13,18.74,7.39,98.85,7.93
Fairbanks,90,US,1570907913,86,64.84,-147.72,30.99,4.7
Paamiut,100,GL,1570907913,74,61.99,-49.67,35.49,10.27
Quatre Cocos,40,MU,1570908223,78,-20.21,57.76,73.4,9.17
Ponta do Sol,19,BR,1570908223,43,-20.63,-46,83.91,5.45
Aramecina,75,HN,1570907913,54,13.74,-87.71,91.4,11.41
Ilulissat,75,GL,1570907914,68,69.22,-51.1,30.2,14.99
Sao Geraldo do Araguaia,24,BR,1570908224,27,-6.4,-48.55,99.21,3.08
Atar,0,MR,1570907914,15,20.52,-13.05,100.4,16.11
Tabou,99,CI,1570907914,94,4.42,-7.36,74.91,6.95
Parfenyevo,100,RU,1570907915,91,58.48,43.41,47.19,15.9
Chumikan,18,RU,1570907915,48,54.72,135.31,25.23,18.1
Bilibino,100,RU,1570907915,94,68.06,166.44,16.41,3.98
Santa Marta,75,CO,1570908224,79,11.24,-74.21,84.2,6.93
Vinstra,100,NO,1570907915,98,61.6,9.73,32.43,3.02
Acapulco,75,MX,1570907916,75,16.86,-99.88,89.6,6.93
Manzil Salim,72,TN,1570908225,37,35.86,8.48,71.6,4.7
Preobrazheniye,16,RU,1570907916,46,42.9,133.91,34.05,7.25
Klaksvik,97,FO,1570907916,75,62.23,-6.59,42.8,9.17
Svetlogorsk,100,RU,1570907917,73,53.14,59.15,45.93,10.32
Cheyenne,1,US,1570907917,12,41.14,-104.82,59,16.11
Yumbel,40,CL,1570907917,43,-37.1,-72.56,69.8,9.17
Labuhan,72,ID,1570907917,80,-2.54,115.51,75.45,1.53
Altay,0,CN,1570907917,37,47.83,88.13,39.63,5.79
Ovada,20,IT,1570907918,77,44.64,8.65,64.4,5.82
Rogers,1,US,1570907918,30,36.33,-94.12,61,10.29
Ponta Delgada,40,PT,1570908226,59,37.73,-25.67,62.6,12.75
Sitka,0,US,1570907918,16,37.17,-99.65,68,27
Palmer,100,AU,1570907919,15,-34.85,139.16,71.6,13.87
Constitucion,90,MX,1570907919,63,23.99,-104.67,64.99,2.24
San Patricio,0,PY,1570908226,31,-26.98,-56.83,99.57,13.09
Sao Gabriel da Cachoeira,75,BR,1570908226,62,-0.13,-67.09,89.6,3.36
Rantepao,84,ID,1570907919,94,-2.97,119.9,64.47,2.44
Kropotkin,2,RU,1570907920,58,45.43,40.58,55.65,3.25
Inongo,64,CD,1570907920,93,-1.93,18.29,73.47,4.82
Artyom,0,RU,1570907920,55,43.36,132.19,33.8,11.18
Kinango,79,KE,1570907920,100,-4.13,39.32,75.2,9.17
Ilorin,98,NG,1570907921,85,8.5,4.55,75.81,7.51
Languyan,90,FR,1570907921,100,48.3,-3.83,61,1.12
Hof,90,DE,1570907921,93,50.32,11.92,63,10.2
Senneterre,90,CA,1570907922,93,48.39,-77.24,46.4,16.11
Asyut,0,EG,1570907922,22,27.18,31.19,85.17,17.95
Mar del Plata,93,AR,1570908227,37,-46.43,-67.52,48.27,13.78
Dukat,0,AL,1570907922,76,40.25,19.57,71.01,1.01
Brownsville,90,US,1570907922,40,25.91,-97.49,71.6,16.11
Meulaboh,98,ID,1570907923,80,4.14,96.13,80.13,4.92
Kalemie,37,CD,1570907923,74,-5.95,29.2,69.87,2.14
Konskie,0,PL,1570907923,73,51.19,20.41,63,1.01
Iraquara,0,BR,1570907923,38,-12.24,-41.62,83.73,11.01
Doha,0,QA,1570907923,70,25.29,51.53,87.8,4.7
Calarasi,5,RO,1570907924,72,44.2,27.33,62.01,6.93
Biltine,16,TD,1570907924,36,14.53,20.93,88.95,10.61
Whitianga,3,NZ,1570907924,96,-36.83,175.7,55,1.99
Dalbandin,0,PK,1570907925,22,28.9,64.41,72.57,5.89
Kroya,87,ID,1570907925,82,-6.5,108.06,72.75,1.65
Angoram,92,PG,1570907925,98,-4.06,144.07,72.57,3.38
Kudat,75,MY,1570907925,88,6.89,116.84,77,6.93
Krasnyy Yar,23,RU,1570908229,78,50.7,44.73,47.73,7.59
Mollendo,9,PE,1570907926,69,-17.03,-72.02,61.95,6.59
Kayes,20,ML,1570907926,66,14.44,-11.44,91.4,4.7
Abu Samrah,45,SY,1570908229,39,35.3,37.18,76.35,10.09
Zhigansk,29,RU,1570907927,88,66.77,123.37,19.83,18.09
Vao,99,EE,1570907927,90,59.1,26.19,48.09,9.52
Katsuura,75,JP,1570907928,63,33.93,134.5,66.99,17.22
Yulara,16,AU,1570907928,19,-25.24,130.99,80.6,14.99
Saint-Francois,71,FR,1570907928,64,46.42,3.91,69.8,10.29
Paka,8,CF,1570907928,95,4.15,15.03,70.77,0.62
Kaniama,99,CD,1570907928,83,-7.57,24.18,72.21,3.05
Auki,58,NG,1570907928,71,12.18,6.51,80.31,9.63
Honningsvag,97,NO,1570907929,81,70.98,25.97,37.47,8.82
Polunochnoye,51,RU,1570907929,91,60.87,60.43,36.93,5.22
Buraydah,0,SA,1570907929,32,26.33,43.97,82.4,6.55
Tecoanapa,75,MX,1570907929,75,16.99,-99.26,89.6,6.93
Oistins,40,BB,1570907929,66,13.07,-59.53,86,11.41
Necochea,87,AR,1570907930,63,-38.55,-58.74,71.85,13.74
Saint-Augustin,75,CA,1570907930,55,45.63,-73.98,66.99,6.93
Back Mountain,90,US,1570908231,62,41.34,-76,62.01,3.4
Piripiri,0,BR,1570907930,18,-4.27,-41.78,102.81,9.99
Diapaga,23,BF,1570907930,70,12.07,1.79,81.93,0.96
Alofi,97,NU,1570907931,65,-19.06,-169.92,77,13.87
Sept-Iles,75,CA,1570907931,50,50.2,-66.38,55.99,12.75
Khasan,13,RU,1570907931,61,42.43,130.64,38.01,3.09
Natal,40,BR,1570907932,61,-5.81,-35.21,86,17.22
Arman,100,RU,1570907932,68,59.7,150.17,31.89,12.63
Sioux Lookout,90,CA,1570908231,54,50.1,-91.92,37.4,6.93
Roald,75,NO,1570907933,93,62.58,6.12,43,6.93
Kipushi,71,CD,1570907933,45,-11.76,27.24,76.17,4.41
Pampa,1,US,1570907933,17,35.54,-100.96,68,20.8
Shebunino,100,RU,1570907933,90,57.66,40.04,49.53,17.67
Lebork,100,PL,1570907933,89,54.54,17.75,54,10.24
Puerto Escondido,75,MX,1570908232,66,15.86,-97.07,87.8,6.93
Luanda,40,AO,1570907934,83,-8.83,13.24,77,8.05
Prince George,90,CA,1570908232,75,53.92,-122.75,43,6.93
San-Pedro,97,CI,1570907934,88,4.75,-6.64,77.07,16.4
Karratha,0,AU,1570907934,53,-20.74,116.85,79.59,13.95
Usoke,75,TZ,1570907935,82,-5.09,32.32,68,5.82
Marsaxlokk,20,MT,1570907935,94,35.84,14.54,73,4.7
Kibre Mengist,98,ET,1570908233,96,5.87,38.99,59.07,0.78
La Ronge,5,CA,1570908233,55,55.1,-105.3,37.4,6.93
San Roque,40,CO,1570908233,60,6.49,-75.02,71.6,8.05
Lumphat,43,KH,1570907936,97,13.5,106.97,71.13,4.34
North Bend,1,US,1570908233,67,43.41,-124.22,60.01,4.7
Morondava,100,MG,1570907936,54,-20.3,44.28,81.21,4.41
Chunskiy,0,RU,1570907936,57,56.08,99.63,24.69,5.3
Drammen,42,NO,1570907936,76,59.74,10.2,51.01,6.93
Taoudenni,45,ML,1570907937,25,22.68,-3.98,94.17,17.96
Lashma,100,RU,1570907937,87,54.93,41.14,50.25,15.75
Coihaique,20,CL,1570907937,34,-45.58,-72.07,51.8,11.41
San Isidro,40,CR,1570908234,83,10.02,-84.06,75.2,11.41
Guipavas,90,FR,1570907937,100,48.43,-4.4,61,6.93
Mustasaari,90,FI,1570907938,86,63.17,21.67,39.99,2.24
Terney,85,RU,1570907938,54,45.05,136.61,31.35,8.07
Berlevag,97,NO,1570907938,72,70.86,29.09,38.01,7.72
Marquette,75,US,1570907938,52,46.54,-87.4,44.6,20.8
Shimoda,20,JP,1570907938,69,34.7,138.93,73.4,11.41
Dandeli,100,IN,1570907939,97,15.25,74.62,72.03,0.96
Marawi,66,PH,1570907939,91,8,124.29,75,5.01
Paita,0,PE,1570907939,290,-5.09,-81.11,62.6,12.75
Snezhnogorsk,67,RU,1570907939,90,69.19,33.23,29.91,2.67
San Fernando,40,TT,1570908235,62,10.28,-61.46,91.99,11.41
Lucapa,23,AO,1570907940,75,-8.42,20.74,73.29,2.4
Lompoc,1,US,1570907940,8,34.64,-120.46,82.4,9.17
Maryborough,0,AU,1570907940,96,-25.54,152.7,54.57,2.86
Ahar,100,IR,1570907940,83,38.48,47.07,48.45,8.38
Lokosovo,100,RU,1570907942,85,61.13,74.84,42.33,8.54
Francisco Sa,0,BR,1570908236,13,-16.48,-43.49,95,12.75
Xapuri,75,BR,1570907943,59,-10.65,-68.5,91.4,6.93
Mildura,86,AU,1570907945,36,-34.18,142.16,60.8,11.41
Maceio,40,BR,1570907946,61,-9.67,-35.74,80.6,13.87
Puerto Carreno,20,CO,1570908236,55,6.19,-67.49,91.4,1.34
Gazojak,36,TM,1570907947,15,41.19,61.4,60.51,8.28
Karakol,100,KG,1570907947,93,42.49,78.39,33.87,3.46
Sucha Beskidzka,8,PL,1570908236,76,49.74,19.59,57,3.36
Kaoma,88,ZM,1570907948,45,-14.8,24.8,74.73,5.22
Alamos,68,AR,1570907948,45,-36.9,-62.36,78.87,8.93
Raychikhinsk,0,RU,1570907948,53,49.8,129.4,24.87,3.72
Nemuro,100,JP,1570907948,91,43.32,145.57,48.45,25.77
Francistown,82,BW,1570907948,46,-21.17,27.5,73.4,8.05
Mutsu,75,JP,1570907949,93,41.29,141.2,57.2,21.92
Tiznit,0,MA,1570907949,52,29.7,-9.73,69.15,6.03
Warmbad,17,DE,1570907949,63,50.67,13.08,66,9.17
Rome,22,IT,1570908237,82,41.89,12.48,66.2,4.7
Raudeberg,84,NO,1570907949,70,61.99,5.14,48.2,5.82
Muravlenko,100,RU,1570907950,92,63.79,74.5,38.91,16.79
Severomuysk,48,RU,1570907950,84,56.17,113.57,5.97,5.88
Narsaq,75,GL,1570907950,86,60.91,-46.05,33.8,3.36
Bajil,60,ES,1570907950,91,38.23,-2.07,57.99,1.99
Kitimat,75,CA,1570907950,93,54.02,-128.69,42.8,4.7
Sumbe,72,AO,1570907950,83,-11.2,13.84,74.19,4.46
Canchungo,92,GW,1570907951,74,12.07,-16.03,87.8,6.93
Jati,42,PK,1570907951,43,24.35,68.27,84.81,6.64
Xunchang,19,CN,1570907952,76,28.45,104.71,64.11,1.57
Victoria Point,0,AU,1570908238,87,-27.58,153.3,57.99,10.29
Kaeo,76,NZ,1570907952,100,-35.1,173.78,50,9.9
Aviles,40,ES,1570907952,82,43.55,-5.92,66,4.7
Tigil,68,RU,1570907953,81,57.8,158.67,31.89,11.75
Pisco,15,PE,1570907953,30,-13.71,-76.2,71.6,11.41
Kamaishi,100,JP,1570907953,95,39.28,141.86,60.15,44.54
Iqaluit,75,CA,1570907953,93,63.75,-68.52,32,5.82
Sorland,40,NO,1570907954,57,67.67,12.69,32,9.17
Villavieja,75,CO,1570907954,32,3.22,-75.22,93.2,11.41
Mahibadhoo,100,MV,1570907954,78,3.78,72.97,79.95,5.09
Kiunga,52,PG,1570907954,98,-6.12,141.3,71.13,2.83
Hualmay,4,PE,1570907954,56,-11.1,-77.61,69.51,10.21
Awjilah,66,LY,1570907955,30,29.14,21.3,81.93,8.69
Tara,0,JP,1570907955,60,33,130.15,69.01,15.01
Taiyuan,91,CN,1570907955,87,37.86,112.56,53.6,2.24
Port Hedland,0,AU,1570908239,94,-20.31,118.58,71.6,6.93
Lorengau,92,PG,1570907956,73,-2.02,147.27,82.83,5.98
Rosarito,75,CO,1570907956,93,4.91,-75.23,87.8,4.7
Zaysan,3,KZ,1570907956,54,47.47,84.87,52.23,7.07
Anadyr,47,RU,1570907956,79,64.73,177.51,26.6,11.18
Sisimiut,100,GL,1570907956,80,66.94,-53.67,27.93,10.67
Ambilobe,56,MG,1570907957,57,-13.19,49.05,78.15,14.52
Hami,83,CN,1570907957,33,42.84,93.51,59.79,4.72
Bandarbeyla,26,SO,1570907957,80,9.49,50.81,81.39,5.36
Hokitika,73,NZ,1570907957,79,-42.72,170.96,50.25,13.31
Santa Fe do Sul,97,BR,1570908240,27,-20.21,-50.93,95.97,7.58
Las Vegas,1,US,1570908240,6,36.17,-115.15,71.01,4.7
Deputatskiy,100,RU,1570907958,91,69.3,139.9,15.51,7.24
Phan Thiet,68,VN,1570908241,93,10.93,108.1,73.47,2.63
Palembang,40,ID,1570907958,83,-2.99,104.76,78.8,2.24
Sokolo,100,ML,1570907958,40,14.74,-6.12,90.75,12.21
Bourail,100,NC,1570907959,94,-21.57,165.5,66.63,5.3
Erenhot,77,CN,1570907959,44,43.65,111.97,34.23,11.76
Edmundston,90,CA,1570907959,54,47.36,-68.33,57.99,10.29
Ossora,100,RU,1570907960,77,59.24,163.07,39.09,28.51
Nijar,44,ES,1570907960,73,36.97,-2.21,75.2,8.05
Riyadh,0,SA,1570907960,23,24.63,46.72,84.2,0.78
Shahrud,3,IR,1570907961,75,36.42,54.97,57.99,12.53
Tessalit,100,ML,1570907961,15,20.2,1.01,96.87,5.91
Parintins,22,BR,1570907961,28,-2.63,-56.73,99.57,7.7
Zhangjiakou,100,CN,1570907961,78,40.77,114.88,45.39,5.27
Puerto del Rosario,20,ES,1570908242,64,28.5,-13.86,75.2,14.99
Westport,40,US,1570907961,59,41.14,-73.36,69.01,2.25
Nouadhibou,0,MR,1570907962,54,20.93,-17.03,78.8,17.22
Jinchang,0,CN,1570907962,54,38.52,102.19,47.55,2.12
Monticello,1,US,1570907962,40,40.03,-88.57,55.99,19.46
Barra do Bugres,98,BR,1570908243,28,-15.07,-57.19,99.75,3.23
Shenjiamen,35,CN,1570907963,74,29.96,122.3,72.57,11.83
Brae,59,GB,1570907963,93,60.4,-1.35,44.6,2.24
Araouane,23,ML,1570907963,21,18.9,-3.53,97.95,8.99
Lebowakgomo,0,ZA,1570907963,33,-24.3,29.54,71.6,6.93
Tarpa,100,HU,1570907964,76,48.1,22.53,57,3.36
Maningrida,67,AU,1570907964,93,-12.05,134.23,66.99,4.26
